[{"year":2015,"abbr":"LAA","team_name":"Angels","home_base":"Los Angeles","win":38,"loss":32,"lat":34.05,"lon":-118.24},{"year":2015,"abbr":"HOU","team_name":"Astros","home_base":"Houston","win":46,"loss":28,"lat":29.76,"lon":-95.37},{"year":2015,"abbr":"OAK","team_name":"Athletics","home_base":"Oakland","win":28,"loss":47,"lat":37.8,"lon":-122.27},{"year":2015,"abbr":"TOR","team_name":"BlueJays","home_base":"Toronto","win":46,"loss":28,"lat":43.65,"lon":-79.39},{"year":2015,"abbr":"ATL","team_name":"Braves","home_base":"Atlanta","win":35,"loss":39,"lat":33.75,"lon":-84.39},{"year":2015,"abbr":"MIL","team_name":"Brewers","home_base":"Milwaukee","win":32,"loss":47,"lat":43.03,"lon":-87.92},{"year":2015,"abbr":"STL","team_name":"Cardinals","home_base":"St. Louis","win":46,"loss":26,"lat":38.63,"lon":-90.2},{"year":2015,"abbr":"CHC","team_name":"Cubs","home_base":"Chicago","win":36,"loss":32,"lat":41.88,"lon":-87.62},{"year":2015,"abbr":"ARI","team_name":"Diamondbacks","home_base":"Arizona","win":34,"loss":42,"lat":-28.39,"lon":-49.38},{"year":2015,"abbr":"LAD","team_name":"Dodgers","home_base":"Los Angeles","win":47,"loss":26,"lat":34.05,"lon":-118.24},{"year":2015,"abbr":"SF","team_name":"Giants","home_base":"San Francisco","win":41,"loss":34,"lat":37.78,"lon":-122.42},{"year":2015,"abbr":"CLE","team_name":"Indians","home_base":"Cleveland","win":37,"loss":41,"lat":41.51,"lon":-81.69},{"year":2015,"abbr":"SEA","team_name":"Mariners","home_base":"Seattle","win":30,"loss":44,"lat":47.6,"lon":-122.33},{"year":2015,"abbr":"MIA","team_name":"Marlins","home_base":"Florida","win":32,"loss":40,"lat":21.53,"lon":-78.23},{"year":2015,"abbr":"NYM","team_name":"Mets","home_base":"New York","win":42,"loss":32,"lat":40.73,"lon":-73.99},{"year":2015,"abbr":"WSN","team_name":"Nationals","home_base":"Washington","win":39,"loss":35,"lat":38.9,"lon":-77.04},{"year":2015,"abbr":"BAL","team_name":"Orioles","home_base":"Baltimore","win":38,"loss":31,"lat":39.29,"lon":-76.61},{"year":2015,"abbr":"SD","team_name":"Padres","home_base":"San Diego","win":35,"loss":42,"lat":32.72,"lon":-117.16},{"year":2015,"abbr":"PHI","team_name":"Phillies","home_base":"Philadelphia","win":30,"loss":44,"lat":39.95,"lon":-75.16},{"year":2015,"abbr":"PIT","team_name":"Pirates","home_base":"Pittsburgh","win":42,"loss":28,"lat":40.44,"lon":-79.99},{"year":2015,"abbr":"TEX","team_name":"Rangers","home_base":"Texas","win":36,"loss":38,"lat":-28.86,"lon":151.17},{"year":2015,"abbr":"TB","team_name":"Rays","home_base":"Tampa","win":39,"loss":42,"lat":27.95,"lon":-82.46},{"year":2015,"abbr":"CIN","team_name":"Reds","home_base":"Cincinnati","win":29,"loss":47,"lat":39.1,"lon":-84.51},{"year":2015,"abbr":"BOS","team_name":"RedSox","home_base":"Boston","win":40,"loss":38,"lat":42.36,"lon":-71.06},{"year":2015,"abbr":"COL","team_name":"Rockies","home_base":"Colorado","win":28,"loss":45,"lat":-22.84,"lon":-51.97},{"year":2015,"abbr":"KCR","team_name":"Royals","home_base":"Kansas City","win":45,"loss":30,"lat":39.08,"lon":-94.56},{"year":2015,"abbr":"DET","team_name":"Tigers","home_base":"Detroit","win":28,"loss":43,"lat":42.35,"lon":-83.06},{"year":2015,"abbr":"MIN","team_name":"Twins","home_base":"Minnesota","win":40,"loss":35,"lat":40.66,"lon":-122.49},{"year":2015,"abbr":"CHW","team_name":"WhiteSox","home_base":"Chicago","win":28,"loss":41,"lat":41.88,"lon":-87.62},{"year":2015,"abbr":"NYY","team_name":"Yankees","home_base":"New York","win":41,"loss":36,"lat":40.73,"lon":-73.99}]